{
"type": "FeatureCollection",
"name": "PLAYASDOM",
"crs": { "type": "name", "properties": { "name": "urn:ogc:def:crs:OGC:1.3:CRS84" } },
"features": [
{ "type": "Feature", "properties": { "id": null, "Name": "PLAYA LAS TERRENAS / POPY", "description": null, "timestamp": null, "icon": null }, "geometry": { "type": "Point", "coordinates": [ -69.528521035530432, 19.32572083108057, 0.0 ] } },
{ "type": "Feature", "properties": { "id": null, "Name": "PLAYA BONITA", "description": null, "timestamp": null, "icon": null }, "geometry": { "type": "Point", "coordinates": [ -69.56809871660802, 19.314190436314419, 0.0 ] } },
{ "type": "Feature", "properties": { "id": null, "Name": "PLAYA LAS BALLENAS", "description": null, "timestamp": null, "icon": null }, "geometry": { "type": "Point", "coordinates": [ -69.550201789365431, 19.32620627087514, 0.0 ] } },
{ "type": "Feature", "properties": { "id": null, "Name": "PLAYA SAONA", "description": null, "timestamp": null, "icon": null }, "geometry": { "type": "Point", "coordinates": [ -68.780280000544977, 18.171110000070971, 0.0 ] } },
{ "type": "Feature", "properties": { "id": null, "Name": "PLAYA SAONA2", "description": null, "timestamp": null, "icon": null }, "geometry": { "type": "Point", "coordinates": [ -68.783175700072206, 18.178581506362349, 0.0 ] } },
{ "type": "Feature", "properties": { "id": null, "Name": "PLAYA JUANILLO", "description": null, "timestamp": null, "icon": null }, "geometry": { "type": "Point", "coordinates": [ -68.39507340384715, 18.479798996183529, 0.0 ] } },
{ "type": "Feature", "properties": { "id": null, "Name": "PLAYA BOCA CHICA", "description": null, "timestamp": null, "icon": null }, "geometry": { "type": "Point", "coordinates": [ -69.610571883765971, 18.446256419678392, 0.0 ] } },
{ "type": "Feature", "properties": { "id": null, "Name": "Playa Guibia", "description": null, "timestamp": null, "icon": null }, "geometry": { "type": "Point", "coordinates": [ -69.905735896641033, 18.458963100025869, 0.0 ] } },
{ "type": "Feature", "properties": { "id": null, "Name": "PLAYA LA CALETA SD", "description": null, "timestamp": null, "icon": null }, "geometry": { "type": "Point", "coordinates": [ -69.683640957625684, 18.44865367904103, 0.0 ] } },
{ "type": "Feature", "properties": { "id": null, "Name": "PLAYA LA VACAMA", "description": null, "timestamp": null, "icon": null }, "geometry": { "type": "Point", "coordinates": [ -68.654583381809232, 18.88590542756107, 0.0 ] } },
{ "type": "Feature", "properties": { "id": null, "Name": "Playa MACAO", "description": null, "timestamp": null, "icon": null }, "geometry": { "type": "Point", "coordinates": [ -68.535521099513844, 18.77308900346851, 0.0 ] } },
{ "type": "Feature", "properties": { "id": null, "Name": "PLAYA LA CALETA LR", "description": null, "timestamp": null, "icon": null }, "geometry": { "type": "Point", "coordinates": [ -68.994404996736066, 18.40216718452368, 0.0 ] } },
{ "type": "Feature", "properties": { "id": null, "Name": "PLAYA BAYAHIBE", "description": null, "timestamp": null, "icon": null }, "geometry": { "type": "Point", "coordinates": [ -68.843075303720013, 18.373290811252591, 0.0 ] } },
{ "type": "Feature", "properties": { "id": null, "Name": "PLAYA DOMINICUS", "description": null, "timestamp": null, "icon": null }, "geometry": { "type": "Point", "coordinates": [ -68.825502530098476, 18.34477026344079, 0.0 ] } },
{ "type": "Feature", "properties": { "id": null, "Name": "PLAYA MINITAS", "description": null, "timestamp": null, "icon": null }, "geometry": { "type": "Point", "coordinates": [ -68.918085765633236, 18.403007562716301, 0.0 ] } },
{ "type": "Feature", "properties": { "id": null, "Name": "PLAYA ESMERALDA", "description": null, "timestamp": null, "icon": null }, "geometry": { "type": "Point", "coordinates": [ -68.982424062680479, 19.016000087684439, 0.0 ] } },
{ "type": "Feature", "properties": { "id": null, "Name": "PLAYA EL LIMÓN", "description": null, "timestamp": null, "icon": null }, "geometry": { "type": "Point", "coordinates": [ -68.867858018349907, 18.992688230405822, 0.0 ] } },
{ "type": "Feature", "properties": { "id": null, "Name": "PLAYA UVERO ALTO", "description": null, "timestamp": null, "icon": null }, "geometry": { "type": "Point", "coordinates": [ -68.577370777937531, 18.810737725454079, 0.0 ] } },
{ "type": "Feature", "properties": { "id": null, "Name": "PLAYA ARENA GORDA", "description": null, "timestamp": null, "icon": null }, "geometry": { "type": "Point", "coordinates": [ -68.459318296112158, 18.727181601160609, 0.0 ] } },
{ "type": "Feature", "properties": { "id": null, "Name": "PLAYA BIBIJAGUA", "description": null, "timestamp": null, "icon": null }, "geometry": { "type": "Point", "coordinates": [ -68.405429516410337, 18.67399754940439, 0.0 ] } },
{ "type": "Feature", "properties": { "id": null, "Name": "PLAYA BAVARO", "description": null, "timestamp": null, "icon": null }, "geometry": { "type": "Point", "coordinates": [ -68.394376097956652, 18.66399842097011, 0.0 ] } },
{ "type": "Feature", "properties": { "id": null, "Name": "PLAYA CABEZA DE TORO", "description": null, "timestamp": null, "icon": null }, "geometry": { "type": "Point", "coordinates": [ -68.356916841121716, 18.649267993551099, 0.0 ] } },
{ "type": "Feature", "properties": { "id": null, "Name": "PLAYA CLARA", "description": null, "timestamp": null, "icon": null }, "geometry": { "type": "Point", "coordinates": [ -68.349198444211751, 18.545770503758281, 0.0 ] } },
{ "type": "Feature", "properties": { "id": null, "Name": "PLAYA CAP CANA", "description": null, "timestamp": null, "icon": null }, "geometry": { "type": "Point", "coordinates": [ -68.378612260770439, 18.499353383202031, 0.0 ] } },
{ "type": "Feature", "properties": { "id": null, "Name": "PLAYA DEL MUERTO SPM", "description": null, "timestamp": null, "icon": null }, "geometry": { "type": "Point", "coordinates": [ -69.297868268837533, 18.43670590904658, 0.0 ] } },
{ "type": "Feature", "properties": { "id": null, "Name": "PLAYA ARRIBA", "description": null, "timestamp": null, "icon": null }, "geometry": { "type": "Point", "coordinates": [ -69.032734748549743, 18.98524526970953, 0.0 ] } },
{ "type": "Feature", "properties": { "id": null, "Name": "PLAYA RINCÓN", "description": null, "timestamp": null, "icon": null }, "geometry": { "type": "Point", "coordinates": [ -69.252097519124263, 19.291075873767909, 0.0 ] } },
{ "type": "Feature", "properties": { "id": null, "Name": "PLAYA LAS GALERAS", "description": null, "timestamp": null, "icon": null }, "geometry": { "type": "Point", "coordinates": [ -69.197599273372333, 19.292913992221219, 0.0 ] } },
{ "type": "Feature", "properties": { "id": null, "Name": "PLAYA EL VALLE", "description": null, "timestamp": null, "icon": null }, "geometry": { "type": "Point", "coordinates": [ -69.330977882760976, 19.283202497515219, 0.0 ] } },
{ "type": "Feature", "properties": { "id": null, "Name": "PLAYA EL PORTILLO", "description": null, "timestamp": null, "icon": null }, "geometry": { "type": "Point", "coordinates": [ -69.498869222139291, 19.325171198730651, 0.0 ] } },
{ "type": "Feature", "properties": { "id": null, "Name": "PLAYA EL ESTILLERO", "description": null, "timestamp": null, "icon": null }, "geometry": { "type": "Point", "coordinates": [ -69.449290758051589, 19.320863075486582, 0.0 ] } },
{ "type": "Feature", "properties": { "id": null, "Name": "PLAYA EL LIMÓN", "description": null, "timestamp": null, "icon": null }, "geometry": { "type": "Point", "coordinates": [ -69.429143265523678, 19.315295935851029, 0.0 ] } },
{ "type": "Feature", "properties": { "id": null, "Name": "PLAYA HONDA", "description": null, "timestamp": null, "icon": null }, "geometry": { "type": "Point", "coordinates": [ -69.393371613958109, 19.309417769821479, 0.0 ] } },
{ "type": "Feature", "properties": { "id": null, "Name": "PLAYA ERMITAÑO1", "description": null, "timestamp": null, "icon": null }, "geometry": { "type": "Point", "coordinates": [ -69.380159888037127, 19.30765114105051, 0.0 ] } },
{ "type": "Feature", "properties": { "id": null, "Name": "PLAYA ERMITAÑO2", "description": null, "timestamp": null, "icon": null }, "geometry": { "type": "Point", "coordinates": [ -69.375395836089794, 19.30299518295153, 0.0 ] } },
{ "type": "Feature", "properties": { "id": null, "Name": "PLAYA CAYO LEVANTADO", "description": null, "timestamp": null, "icon": null }, "geometry": { "type": "Point", "coordinates": [ -69.279369048465369, 19.167888424562481, 0.0 ] } },
{ "type": "Feature", "properties": { "id": null, "Name": "PLAYA PALENQUE", "description": null, "timestamp": null, "icon": null }, "geometry": { "type": "Point", "coordinates": [ -70.166068389171258, 18.23402586545399, 0.0 ] } },
{ "type": "Feature", "properties": { "id": null, "Name": "PLAYA NAJAYO", "description": null, "timestamp": null, "icon": null }, "geometry": { "type": "Point", "coordinates": [ -70.107294028013911, 18.299728211732958, 0.0 ] } },
{ "type": "Feature", "properties": { "id": null, "Name": "PLAYA LAS SALINAS", "description": null, "timestamp": null, "icon": null }, "geometry": { "type": "Point", "coordinates": [ -70.550248536638023, 18.22268113968288, 0.0 ] } },
{ "type": "Feature", "properties": { "id": null, "Name": "PLAYA MONTE RIO", "description": null, "timestamp": null, "icon": null }, "geometry": { "type": "Point", "coordinates": [ -70.71090547347255, 18.408858683664281, 0.0 ] } },
{ "type": "Feature", "properties": { "id": null, "Name": "PLAYA LOS NEGROS", "description": null, "timestamp": null, "icon": null }, "geometry": { "type": "Point", "coordinates": [ -70.841539199325766, 18.34830559932978, 0.0 ] } },
{ "type": "Feature", "properties": { "id": null, "Name": "PLAYA CAOBITA", "description": null, "timestamp": null, "icon": null }, "geometry": { "type": "Point", "coordinates": [ -70.869857479091735, 18.308142523348721, 0.0 ] } },
{ "type": "Feature", "properties": { "id": null, "Name": "PLAYA CARACOLES", "description": null, "timestamp": null, "icon": null }, "geometry": { "type": "Point", "coordinates": [ -70.620843226827304, 18.420807821051049, 0.0 ] } },
{ "type": "Feature", "properties": { "id": null, "Name": "PLAYA EL QUEMAITO", "description": null, "timestamp": null, "icon": null }, "geometry": { "type": "Point", "coordinates": [ -71.068719200292293, 18.121936500020951, 0.0 ] } },
{ "type": "Feature", "properties": { "id": null, "Name": "PLAYA PARAISO", "description": null, "timestamp": null, "icon": null }, "geometry": { "type": "Point", "coordinates": [ -71.164081890541624, 17.988108973992642, 0.0 ] } },
{ "type": "Feature", "properties": { "id": null, "Name": "PLAYA LA SALADILLA", "description": null, "timestamp": null, "icon": null }, "geometry": { "type": "Point", "coordinates": [ -71.072490234500378, 18.183389662796859, 0.0 ] } },
{ "type": "Feature", "properties": { "id": null, "Name": "PLAYA BAHÍA DE LAS ÁGUILAS", "description": null, "timestamp": null, "icon": null }, "geometry": { "type": "Point", "coordinates": [ -71.628545475945927, 17.82191531124872, 0.0 ] } },
{ "type": "Feature", "properties": { "id": null, "Name": "PLAYA PEDERNALES", "description": null, "timestamp": null, "icon": null }, "geometry": { "type": "Point", "coordinates": [ -71.742410150469894, 18.0270345832812, 0.0 ] } },
{ "type": "Feature", "properties": { "id": null, "Name": "PLAYA CABO ROJO", "description": null, "timestamp": null, "icon": null }, "geometry": { "type": "Point", "coordinates": [ -71.659948859190891, 17.91141676584007, 0.0 ] } },
{ "type": "Feature", "properties": { "id": null, "Name": "PLAYA CUEVA DE PESCADORES", "description": null, "timestamp": null, "icon": null }, "geometry": { "type": "Point", "coordinates": [ -71.645959129634164, 17.870448543387791, 0.0 ] } },
{ "type": "Feature", "properties": { "id": null, "Name": "PLAYA BUEN HOMBRE", "description": null, "timestamp": null, "icon": null }, "geometry": { "type": "Point", "coordinates": [ -71.403731726939668, 19.867659406446268, 0.0 ] } },
{ "type": "Feature", "properties": { "id": null, "Name": "PLAYA LA ENSENADA", "description": null, "timestamp": null, "icon": null }, "geometry": { "type": "Point", "coordinates": [ -71.20853159884436, 19.859090099673249, 0.0 ] } },
{ "type": "Feature", "properties": { "id": null, "Name": "PLAYA PUNTA RUCIA", "description": null, "timestamp": null, "icon": null }, "geometry": { "type": "Point", "coordinates": [ -71.215277800913924, 19.838611100263769, 0.0 ] } },
{ "type": "Feature", "properties": { "id": null, "Name": "PLAYA EL MORRO", "description": null, "timestamp": null, "icon": null }, "geometry": { "type": "Point", "coordinates": [ -71.6582014993147, 19.89427230025419, 0.0 ] } },
{ "type": "Feature", "properties": { "id": null, "Name": "PLAYA POPA", "description": null, "timestamp": null, "icon": null }, "geometry": { "type": "Point", "coordinates": [ -71.520281297739501, 19.90774569900935, 0.0 ] } },
{ "type": "Feature", "properties": { "id": null, "Name": "PLAYA LOS COQUITOS / MANZANILLO", "description": null, "timestamp": null, "icon": null }, "geometry": { "type": "Point", "coordinates": [ -71.746300461855341, 19.705929633138691, 0.0 ] } },
{ "type": "Feature", "properties": { "id": null, "Name": "PLAYA COSTAMBAR", "description": null, "timestamp": null, "icon": null }, "geometry": { "type": "Point", "coordinates": [ -70.715054006217713, 19.814873351610821, 0.0 ] } },
{ "type": "Feature", "properties": { "id": null, "Name": "PLAYA DORADA", "description": null, "timestamp": null, "icon": null }, "geometry": { "type": "Point", "coordinates": [ -70.641941197246013, 19.773761498032609, 0.0 ] } },
{ "type": "Feature", "properties": { "id": null, "Name": "PLAYA LONG BEACH", "description": null, "timestamp": null, "icon": null }, "geometry": { "type": "Point", "coordinates": [ -70.666960000200262, 19.78637509995632, 0.0 ] } },
{ "type": "Feature", "properties": { "id": null, "Name": "PLAYA SOSUA", "description": null, "timestamp": null, "icon": null }, "geometry": { "type": "Point", "coordinates": [ -70.517150399932447, 19.7572210992554, 0.0 ] } },
{ "type": "Feature", "properties": { "id": null, "Name": "PLAYA ALICIA", "description": null, "timestamp": null, "icon": null }, "geometry": { "type": "Point", "coordinates": [ -70.518858899210088, 19.764922399867221, 0.0 ] } },
{ "type": "Feature", "properties": { "id": null, "Name": "PLAYA CABARETE", "description": null, "timestamp": null, "icon": null }, "geometry": { "type": "Point", "coordinates": [ -70.413090900593417, 19.75228229810023, 0.0 ] } },
{ "type": "Feature", "properties": { "id": null, "Name": "PLAYA BOCA YASICA", "description": null, "timestamp": null, "icon": null }, "geometry": { "type": "Point", "coordinates": [ -70.366764400311752, 19.706039500119331, 0.0 ] } },
{ "type": "Feature", "properties": { "id": null, "Name": "PLAYA DIAMANTE", "description": null, "timestamp": null, "icon": null }, "geometry": { "type": "Point", "coordinates": [ -69.898995636798645, 19.58029081311026, 0.0 ] } },
{ "type": "Feature", "properties": { "id": null, "Name": "PLAYA LOS YAYALES", "description": null, "timestamp": null, "icon": null }, "geometry": { "type": "Point", "coordinates": [ -69.779591038736356, 19.30161313950077, 0.0 ] } },
{ "type": "Feature", "properties": { "id": null, "Name": "PLAYA CAYENAS", "description": null, "timestamp": null, "icon": null }, "geometry": { "type": "Point", "coordinates": [ -69.789379600951833, 19.311041299299749, 0.0 ] } },
{ "type": "Feature", "properties": { "id": null, "Name": "PLAYA LA ENTRADA", "description": null, "timestamp": null, "icon": null }, "geometry": { "type": "Point", "coordinates": [ -69.901620499700726, 19.538984039575482, 0.0 ] } },
{ "type": "Feature", "properties": { "id": null, "Name": "PLAYA EL BRETON", "description": null, "timestamp": null, "icon": null }, "geometry": { "type": "Point", "coordinates": [ -69.938516600081115, 19.662810999806631, 0.0 ] } },
{ "type": "Feature", "properties": { "id": null, "Name": "PLAYA GRANDE", "description": null, "timestamp": null, "icon": null }, "geometry": { "type": "Point", "coordinates": [ -70.011900659713348, 19.677539338868488, 0.0 ] } },
{ "type": "Feature", "properties": { "id": null, "Name": "PLAYA DE JUAN DOLIO", "description": "PLAYA DE JUAN DOLIO", "timestamp": null, "icon": null }, "geometry": { "type": "Point", "coordinates": [ -69.417288641403559, 18.426210684303925, 0.0 ] } },
{ "type": "Feature", "properties": { "id": null, "Name": "PLAYA DE GUAYACANES", "description": "PLAYA DE GUAYACANES", "timestamp": null, "icon": null }, "geometry": { "type": "Point", "coordinates": [ -69.455880984853394, 18.419347731983926, 0.0 ] } }
]
}
